Time (s),Altitude (m),Altitude above sea level (m),Vertical velocity (m/s),Total velocity (m/s),Vertical acceleration (m/s²),Total acceleration (m/s²),Position East of launch (m),Position North of launch (m),Lateral distance (m),Lateral direction (°),Lateral velocity (m/s),Lateral acceleration (m/s²),Latitude (° N),Longitude (° E),Angle of attack (°),Roll rate (°/s),Pitch rate (°/s),Yaw rate (°/s),Vertical orientation (zenith) (°),Lateral orientation (azimuth) (°),Mass (g),Motor mass (g),Longitudinal moment of inertia (kg·m²),Rotational moment of inertia (kg·m²),Gravitational acceleration (m/s²),CP location (cm),CG location (cm),Stability margin calibers (​),Thrust (N),Thrust-to-weight ratio (​),Drag force (N),Drag coefficient (​),Friction drag coefficient (​),Pressure drag coefficient (​),Base drag coefficient (​),Axial drag coefficient (​),Normal force coefficient (​),Pitch moment coefficient (​),Yaw moment coefficient (​),Side force coefficient (​),Roll moment coefficient (​),Roll forcing coefficient (​),Roll damping coefficient (​),Pitch damping coefficient (​),Wind velocity (m/s),Wind direction (°),Air temperature (°C),Air pressure (mbar),Air density (g/cm³),Speed of sound (m/s),Mach number (​),Reynolds number (​),Reference length (cm),Reference area (cm²),Simulation time step (s),Computation time (s),Coriolis acceleration (m/s²)
# Event IGNITION occurred at t=0 seconds
# Event LAUNCH occurred at t=0 seconds
0,0,890,0,0,0,0,0,0,0,0,0,0,31.94,-102,84,0,0,0,84,90,21235.101,6718,14.089,0.068,9.792,NaN,193.006,NaN,0,0,0,0.523,0.403,0,0.12,0.001,NaN,NaN,NaN,NaN,NaN,NaN,NaN,NaN,2.591,90,9.215,911.035,0.001,336.883,0.008,489910.566,15.524,189.288,0.01,0.001,0
0.01,0,890,0.012,0.012,6.93,7.145,0,0,0,0,0.003,1.741,31.94,-102,83.744,0,0,0,84,90,21231.581,6714.48,14.087,0.068,9.792,NaN,192.992,NaN,356.949,1.717,0,0.523,0.403,0,0.12,0.002,NaN,NaN,NaN,NaN,NaN,NaN,NaN,NaN,2.578,90,9.215,911.035,0.001,336.883,0.008,487886.676,15.524,189.288,0.01,0.002,0
0.02,0.001,890.001,0.164,0.167,23.655,23.913,0,0,0,90,0.029,3.499,31.94,-102,80.371,0,0,0,84,90,21228.061,6710.96,14.084,0.068,9.792,NaN,192.978,NaN,713.898,3.434,0,0.522,0.402,0,0.12,0.006,NaN,NaN,NaN,NaN,NaN,NaN,NaN,NaN,2.564,90,9.215,911.035,0.001,336.883,0.008,491243.385,15.524,189.288,0.01,0.002,0
0.03,0.004,890.004,0.485,0.49,40.386,40.727,0.001,0,0.001,90,0.073,5.257,31.94,-102,73.532,0,0,0,84,90,21224.541,6707.44,14.082,0.068,9.792,NaN,192.964,NaN,1070.846,5.152,0.002,0.52,0.4,0,0.12,0.026,NaN,NaN,NaN,NaN,NaN,NaN,NaN,NaN,2.55,90,9.215,911.035,0.001,336.883,0.008,504352.619,15.524,189.288,0.01,0.003,0
0.04,0.011,890.011,0.972,0.981,57.123,57.552,0.002,0,0.002,90,0.134,7.014,31.94,-102,63.998,0,0,0,84,90,21221.021,6703.92,14.079,0.068,9.792,NaN,192.95,NaN,1427.795,6.871,0.008,0.515,0.395,0,0.12,0.089,NaN,NaN,NaN,NaN,NaN,NaN,NaN,NaN,2.537,90,9.215,911.034,0.001,336.883,0.008,537395.123,15.524,189.288,0.01,0.003,0
# Event LIFTOFF occurred at t=0.05 seconds
0.05,0.024,890.024,1.559,1.573,60.362,60.694,0.003,0,0.003,90,0.206,6.344,31.94,-102,54.26,0,0,0,84,90,21213.294,6696.193,14.073,0.068,9.792,NaN,192.92,NaN,1494.127,7.193,0.021,0.506,0.386,0,0.12,0.196,NaN,NaN,NaN,NaN,NaN,NaN,NaN,NaN,2.523,90,9.215,911.033,0.001,336.883,0.009,594240.832,15.524,189.288,0.01,0.004,0
0.06,0.042,890.042,2.178,2.195,63.497,63.847,0.006,0,0.006,90,0.271,6.674,31.94,-102,46.229,0,0,0,84,90,21205.567,6688.466,14.068,0.068,9.792,NaN,192.889,NaN,1560.459,7.515,0.041,0.497,0.377,0,0.12,0.306,NaN,NaN,NaN,NaN,NaN,NaN,NaN,NaN,2.54,90,9.215,911.031,0.001,336.883,0.011,672426.251,15.524,189.288,0.01,0.004,0
0.07,0.067,890.067,2.829,2.849,66.634,67.001,0.009,0,0.009,90,0.339,7.004,31.94,-102,39.679,0,0,0,84,90,21197.84,6680.74,14.062,0.068,9.792,NaN,192.859,NaN,1626.791,7.837,0.07,0.487,0.367,0,0.12,0.4,NaN,NaN,NaN,NaN,NaN,NaN,NaN,NaN,2.557,90,9.215,911.028,0.001,336.883,0.012,765561.778,15.524,189.288,0.012,0.004,0
0.082,0.106,890.106,3.651,3.676,70.402,70.79,0.013,0,0.013,90,0.426,7.4,31.94,-102,33.444,0,0,0,84,90,21188.568,6671.467,14.055,0.068,9.792,NaN,192.822,NaN,1706.389,8.224,0.115,0.475,0.355,0,0.12,0.482,NaN,NaN,NaN,NaN,NaN,NaN,NaN,NaN,2.578,90,9.214,911.024,0.001,336.883,0.014,893938.489,15.524,189.288,0.01,0.005,0
0.092,0.146,890.146,4.353,4.382,70.002,70.387,0.018,0,0.018,90,0.5,7.357,31.94,-102,29.41,0,0,0,84,90,21180.366,6663.265,14.049,0.068,9.792,NaN,192.79,NaN,1697.251,8.183,0.159,0.467,0.347,0,0.12,0.524,NaN,NaN,NaN,NaN,NaN,NaN,NaN,NaN,2.595,90,9.214,911.019,0.001,336.883,0.016,1009863.675,15.524,189.288,0.01,0.005,0.001
0.102,0.193,890.193,5.051,5.084,69.601,69.984,0.023,0,0.023,90,0.573,7.315,31.94,-102,26.164,0,0,0,84,90,21172.164,6655.064,14.043,0.068,9.792,NaN,192.757,NaN,1688.112,8.143,0.208,0.459,0.339,0,0.12,0.55,NaN,NaN,NaN,NaN,NaN,NaN,NaN,NaN,2.603,90,9.214,911.014,0.001,336.882,0.018,1128170.563,15.524,189.288,0.01,0.006,0.001
0.112,0.247,890.247,5.745,5.782,69.2,69.581,0.029,0,0.029,90,0.646,7.273,31.94,-102,23.284,0,0,0,84,90,21163.962,6646.862,14.037,0.068,9.792,NaN,192.725,NaN,1678.974,8.102,0.261,0.453,0.333,0,0.12,0.566,NaN,NaN,NaN,NaN,NaN,NaN,NaN,NaN,2.576,90,9.213,911.008,0.001,336.882,0.02,1245387.498,15.524,189.288,0.01,0.006,0.001
0.122,0.308,890.308,6.435,6.475,68.798,69.177,0.036,0,0.036,90,0.719,7.231,31.94,-102,20.916,0,0,0,84,90,21155.761,6638.66,14.031,0.068,9.792,NaN,192.692,NaN,1669.836,8.061,0.317,0.447,0.327,0,0.12,0.572,NaN,NaN,NaN,NaN,NaN,NaN,NaN,NaN,2.548,90,9.213,911.001,0.001,336.882,0.021,1364492.086,15.524,189.288,0.01,0.006,0.001
0.132,0.376,890.376,7.121,7.165,68.396,68.773,0.044,0,0.044,90,0.791,7.189,31.94,-102,18.94,0,0,0,84,90,21147.559,6630.458,14.025,0.068,9.792,NaN,192.66,NaN,1660.698,8.02,0.375,0.442,0.322,0,0.12,0.572,NaN,NaN,NaN,NaN,NaN,NaN,NaN,NaN,2.521,90,9.213,910.993,0.001,336.882,0.023,1484827.342,15.524,189.288,0.01,0.007,0.001
0.142,0.45,890.45,7.803,7.851,67.993,68.368,0.052,0,0.052,90,0.862,7.146,31.94,-102,17.27,0,0,0,84,90,21139.357,6622.256,14.019,0.068,9.792,NaN,192.627,NaN,1651.559,7.979,0.436,0.437,0.317,0,0.12,0.568,NaN,NaN,NaN,NaN,NaN,NaN,NaN,NaN,2.494,90,9.212,910.985,0.001,336.881,0.025,1605929.896,15.524,189.288,0.01,0.007,0.001
0.152,0.532,890.532,8.481,8.532,67.591,67.963,0.061,0,0.061,90,0.934,7.104,31.94,-102,15.7,0,0,0,84,90,21131.155,6614.054,14.013,0.068,9.792,NaN,192.594,NaN,1642.421,7.938,0.497,0.433,0.313,0,0.12,0.561,NaN,NaN,NaN,NaN,NaN,NaN,NaN,NaN,2.441,90,9.212,910.976,0.001,336.881,0.027,1725743.299,15.524,189.288,0.01,0.007,0.001
0.162,0.62,890.62,9.155,9.21,67.188,67.558,0.071,0,0.071,90,1.004,7.062,31.94,-102,13.797,0,0,0,84,90,21122.953,6605.852,14.007,0.067,9.792,NaN,192.562,NaN,1633.283,7.896,0.55,0.429,0.309,0,0.12,0.546,NaN,NaN,NaN,NaN,NaN,NaN,NaN,NaN,2.291,90,9.211,910.966,0.001,336.881,0.029,1839566.776,15.524,189.288,0.01,0.008,0.001
0.172,0.715,890.715,9.825,9.884,66.785,67.153,0.081,0,0.081,90,1.075,7.019,31.94,-102,12.123,0,0,0,84,90,21114.751,6597.65,14.001,0.067,9.792,NaN,192.529,NaN,1624.144,7.855,0.6,0.426,0.306,0,0.12,0.528,NaN,NaN,NaN,NaN,NaN,NaN,NaN,NaN,2.141,90,9.21,910.956,0.001,336.88,0.031,1954429.353,15.524,189.288,0.004,0.008,0.001
0.176,0.755,890.755,10.092,10.152,66.624,66.991,0.086,0,0.086,90,1.103,7.002,31.94,-102,11.509,0,0,0,84,90,21111.47,6594.37,13.999,0.067,9.792,NaN,192.516,NaN,1620.489,7.839,0.62,0.424,0.304,0,0.12,0.52,NaN,NaN,NaN,NaN,NaN,NaN,NaN,NaN,2.081,90,9.21,910.951,0.001,336.88,0.031,2000593.029,15.524,189.288,0.006,0.008,0.001
0.182,0.817,890.817,10.492,10.554,66.696,67.064,0.092,0,0.092,90,1.145,7.01,31.94,-102,10.639,0,0,0,84,90,21106.508,6589.407,13.995,0.067,9.792,NaN,192.496,NaN,1621.682,7.846,0.65,0.422,0.302,0,0.12,0.509,NaN,NaN,NaN,NaN,NaN,NaN,NaN,NaN,1.991,90,9.21,910.944,0.001,336.88,0.033,2070195.331,15.524,189.288,0.009,0.009,0.001
0.191,0.914,890.914,11.092,11.158,66.806,67.174,0.103,0,0.103,90,1.208,7.022,31.94,-102,9.438,0,0,0,84,90,21099.065,6581.964,13.99,0.067,9.792,NaN,192.467,NaN,1623.472,7.858,0.695,0.42,0.3,0,0.12,0.493,NaN,NaN,NaN,NaN,NaN,NaN,NaN,NaN,1.855,90,9.209,910.933,0.001,336.88,0.034,2175573.087,15.524,189.288,0.01,0.009,0.001
0.201,1.028,891.028,11.761,11.83,66.927,67.296,0.115,0,0.115,90,1.278,7.034,31.94,-102,8.302,0,0,0,84,90,21090.794,6573.693,13.984,0.067,9.792,NaN,192.433,NaN,1625.461,7.871,0.748,0.417,0.297,0,0.12,0.477,NaN,NaN,NaN,NaN,NaN,NaN,NaN,NaN,1.72,90,9.208,910.921,0.001,336.879,0.036,2294582.06,15.524,189.288,0.01,0.009,0.001
0.211,1.149,891.149,12.431,12.504,67.047,67.417,0.128,0,0.128,90,1.349,7.047,31.94,-102,7.864,0,0,0,84,90,21082.523,6565.423,13.978,0.067,9.792,NaN,192.4,NaN,1627.45,7.883,0.818,0.414,0.294,0,0.12,0.469,NaN,NaN,NaN,NaN,NaN,NaN,NaN,NaN,1.719,90,9.208,910.907,0.001,336.879,0.038,2420605.517,15.524,189.288,0.01,0.009,0.002
0.221,1.277,891.277,13.102,13.179,67.168,67.538,0.142,0,0.142,90,1.419,7.06,31.94,-102,7.469,0,0,0,84,90,21074.253,6557.152,13.972,0.067,9.792,NaN,192.367,NaN,1629.439,7.896,0.894,0.412,0.292,0,0.12,0.463,NaN,NaN,NaN,NaN,NaN,NaN,NaN,NaN,1.719,90,9.207,910.893,0.001,336.878,0.04,2546979.51,15.524,189.288,0.01,0.01,0.002
0.231,1.411,891.411,13.774,13.855,67.288,67.659,0.157,0,0.157,90,1.49,7.072,31.94,-102,7.111,0,0,0,84,90,21065.982,6548.882,13.966,0.067,9.792,NaN,192.334,NaN,1631.427,7.909,0.977,0.412,0.292,0,0.12,0.459,NaN,NaN,NaN,NaN,NaN,NaN,NaN,NaN,1.718,90,9.206,910.878,0.001,336.878,0.042,2673685.805,15.524,189.288,0.01,0.01,0.002
0.241,1.552,891.552,14.448,14.532,67.408,67.779,0.172,0,0.172,90,1.561,7.085,31.94,-102,6.784,0,0,0,84,90,21057.712,6540.611,13.959,0.067,9.792,NaN,192.301,NaN,1633.416,7.922,1.064,0.413,0.292,0,0.12,0.456,NaN,NaN,NaN,NaN,NaN,NaN,NaN,NaN,1.718,90,9.205,910.862,0.001,336.877,0.044,2800709.544,15.524,189.288,0.01,0.01,0.002
0.251,1.7,891.7,15.122,15.21,67.528,67.9,0.188,0,0.188,90,1.632,7.097,31.94,-102,6.507,0,0,0,84,90,21049.441,6532.34,13.953,0.067,9.792,NaN,192.268,NaN,1635.405,7.934,1.156,0.413,0.292,0,0.12,0.453,NaN,NaN,NaN,NaN,NaN,NaN,NaN,NaN,1.723,90,9.204,910.846,0.001,336.876,0.046,2928277.897,15.524,189.288,0.01,0.01,0.002
0.261,1.855,891.855,15.798,15.89,67.647,68.02,0.205,0,0.205,90,1.703,7.11,31.94,-102,6.435,0,0,0,84,90,21041.171,6524.07,13.947,0.067,9.792,NaN,192.235,NaN,1637.394,7.947,1.259,0.413,0.292,0,0.12,0.452,NaN,NaN,NaN,NaN,NaN,NaN,NaN,NaN,1.781,90,9.203,910.828,0.001,336.876,0.048,3058260.359,15.524,189.288,0.01,0.011,0.002
0.271,2.016,892.016,16.475,16.571,67.767,68.14,0.222,0,0.222,90,1.774,7.123,31.94,-102,6.368,0,0,0,84,90,21032.9,6515.799,13.941,0.067,9.792,NaN,192.202,NaN,1639.383,7.96,1.367,0.413,0.292,0,0.12,0.452,NaN,NaN,NaN,NaN,NaN,NaN,NaN,NaN,1.839,90,9.202,910.81,0.001,336.875,0.05,3188467.833,15.524,189.288,0.01,0.011,0.002
0.281,2.184,892.184,17.154,17.253,67.886,68.26,0.24,0,0.24,90,1.845,7.135,31.94,-102,6.306,0,0,0,84,90,21024.629,6507.529,13.935,0.067,9.792,NaN,192.168,NaN,1641.372,7.973,1.479,0.413,0.292,0,0.12,0.451,NaN,NaN,NaN,NaN,NaN,NaN,NaN,NaN,1.897,90,9.201,910.791,0.001,336.875,0.052,3318899.413,15.524,189.288,0.01,0.011,0.002
0.291,2.359,892.359,17.833,17.936,68.005,68.38,0.259,0,0.259,90,1.916,7.148,31.94,-102,6.248,0,0,0,84,90,21016.359,6499.258,13.929,0.067,9.792,NaN,192.135,NaN,1643.36,7.985,1.596,0.413,0.292,0,0.12,0.451,NaN,NaN,NaN,NaN,NaN,NaN,NaN,NaN,1.955,90,9.2,910.772,0.001,336.874,0.054,3449554.254,15.524,189.288,0.01,0.011,0.002
0.301,2.541,892.541,18.514,18.62,68.124,68.499,0.278,0,0.278,90,1.988,7.16,31.94,-102,6.189,0,0,0,84,90,21008.088,6490.988,13.923,0.067,9.792,NaN,192.102,NaN,1645.349,7.998,1.717,0.413,0.292,0,0.12,0.45,NaN,NaN,NaN,NaN,NaN,NaN,NaN,NaN,2.011,90,9.198,910.752,0.001,336.873,0.056,3580363.147,15.524,189.288,0.01,0.011,0.002
0.311,2.729,892.729,19.196,19.306,68.243,68.619,0.299,0,0.299,90,2.06,7.173,31.94,-102,6.09,0,0,0,84,90,20999.818,6482.717,13.917,0.067,9.792,NaN,192.069,NaN,1647.338,8.011,1.84,0.413,0.292,0,0.12,0.449,NaN,NaN,NaN,NaN,NaN,NaN,NaN,NaN,2.052,90,9.197,910.731,0.001,336.872,0.058,3710782.668,15.524,189.288,0.01,0.012,0.002
0.321,2.925,892.925,19.879,19.993,68.362,68.738,0.32,0,0.32,90,2.131,7.185,31.94,-102,5.997,0,0,0,84,90,20991.547,6474.446,13.91,0.067,9.792,NaN,192.035,NaN,1649.327,8.024,1.968,0.413,0.292,0,0.12,0.448,NaN,NaN,NaN,NaN,NaN,NaN,NaN,NaN,2.093,90,9.196,910.709,0.001,336.872,0.06,3841431.188,15.524,189.288,0.01,0.012,0.002
0.331,3.127,893.127,20.563,20.681,68.48,68.858,0.341,0,0.341,90,2.203,7.198,31.94,-102,5.91,0,0,0,84,90,20983.277,6466.176,13.904,0.067,9.792,NaN,192.002,NaN,1651.316,8.037,2.101,0.413,0.292,0,0.121,0.447,NaN,NaN,NaN,NaN,NaN,NaN,NaN,NaN,2.133,90,9.195,910.686,0.001,336.871,0.062,3972307.326,15.524,189.288,0.01,0.012,0.003
0.341,3.336,893.336,21.248,21.37,68.599,68.977,0.364,0,0.364,90,2.275,7.21,31.94,-102,5.828,0,0,0,84,90,20975.006,6457.905,13.898,0.067,9.792,NaN,191.968,NaN,1653.304,8.05,2.238,0.413,0.292,0,0.121,0.447,NaN,NaN,NaN,NaN,NaN,NaN,NaN,NaN,2.174,90,9.193,910.663,0.001,336.87,0.064,4103409.81,15.524,189.288,0.01,0.012,0.003
0.351,3.552,893.552,21.935,22.06,68.718,69.096,0.387,0,0.387,90,2.348,7.223,31.94,-102,5.741,0,0,0,84,90,20966.735,6449.635,13.892,0.067,9.792,NaN,191.935,NaN,1655.293,8.063,2.379,0.413,0.292,0,0.121,0.446,NaN,NaN,NaN,NaN,NaN,NaN,NaN,NaN,2.211,90,9.192,910.639,0.001,336.869,0.067,4234588.076,15.524,189.288,0.01,0.012,0.003
0.361,3.775,893.775,22.623,22.752,68.836,69.215,0.411,0,0.411,90,2.42,7.235,31.94,-102,5.574,0,0,0,84,90,20958.465,6441.364,13.886,0.067,9.792,NaN,191.902,NaN,1657.282,8.075,2.519,0.413,0.292,0,0.121,0.444,NaN,NaN,NaN,NaN,NaN,NaN,NaN,NaN,2.213,90,9.19,910.614,0.001,336.868,0.069,4364662.753,15.524,189.288,0.01,0.013,0.003
0.371,4.004,894.004,23.312,23.444,68.955,69.335,0.435,0,0.435,90,2.492,7.247,31.94,-102,5.417,0,0,0,84,90,20950.194,6433.094,13.88,0.067,9.792,NaN,191.868,NaN,1659.271,8.088,2.663,0.413,0.292,0,0.121,0.443,NaN,NaN,NaN,NaN,NaN,NaN,NaN,NaN,2.215,90,9.189,910.588,0.001,336.867,0.071,4494989.446,15.524,189.288,0.01,0.013,0.003
0.381,4.241,894.241,24.002,24.138,69.073,69.454,0.461,0,0.461,90,2.565,7.26,31.94,-102,5.268,0,0,0,84,90,20941.924,6424.823,13.874,0.067,9.792,NaN,191.835,NaN,1661.26,8.101,2.811,0.413,0.292,0,0.121,0.441,NaN,NaN,NaN,NaN,NaN,NaN,NaN,NaN,2.217,90,9.187,910.562,0.001,336.866,0.073,4625564.918,15.524,189.288,0.01,0.013,0.003
0.391,4.484,894.484,24.693,24.833,69.192,69.573,0.487,0,0.487,90,2.637,7.272,31.94,-102,5.127,0,0,0,84,90,20933.653,6416.553,13.867,0.067,9.792,NaN,191.801,NaN,1663.248,8.114,2.964,0.413,0.292,0,0.121,0.44,NaN,NaN,NaN,NaN,NaN,NaN,NaN,NaN,2.219,90,9.186,910.534,0.001,336.866,0.075,4756386.222,15.524,189.288,0.01,0.013,0.003
0.401,4.735,894.735,25.386,25.53,69.31,69.691,0.513,0,0.513,90,2.71,7.285,31.94,-102,5.025,0,0,0,84,90,20925.383,6408.282,13.861,0.067,9.792,NaN,191.768,NaN,1665.237,8.127,3.124,0.413,0.292,0,0.121,0.439,NaN,NaN,NaN,NaN,NaN,NaN,NaN,NaN,2.236,90,9.184,910.506,0.001,336.865,0.077,4887971.844,15.524,189.288,0.01,0.013,0.003
0.411,4.992,894.992,26.079,26.227,69.426,69.809,0.541,0,0.541,90,2.783,7.297,31.94,-102,5.203,0,0,0,84,90,20917.112,6400.011,13.855,0.067,9.792,NaN,191.734,NaN,1667.226,8.14,3.314,0.413,0.292,0,0.121,0.441,NaN,NaN,NaN,NaN,NaN,NaN,NaN,NaN,2.382,90,9.183,910.478,0.001,336.864,0.079,5024500.754,15.524,189.288,0.01,0.014,0.003
# Event LAUNCHROD occurred at t=0.421 seconds
0.421,5.256,895.256,26.774,26.926,69.476,69.929,0.569,0,0.569,90,2.856,7.942,31.94,-102,5.372,0,0,0,84,90,20908.842,6391.741,13.849,0.067,9.792,212.795,191.7,1.359,1669.215,8.153,3.509,0.413,0.292,0,0.121,0.443,1.011,1.374,-0,0,0,0,0,0,2.529,90,9.181,910.448,0.001,336.862,0.081,5161287.667,15.524,189.288,0.015,0.014,0.003
0.436,5.666,895.666,27.818,27.976,69.656,70.104,0.613,0,0.613,90,2.975,7.907,31.94,-102,5.625,0,0.111,0,83.999,90,20896.436,6379.335,13.84,0.067,9.792,212.337,191.65,1.333,1672.198,8.172,3.817,0.413,0.292,0,0.121,0.445,1.07,1.426,-0,0,0,0,0,0,2.748,90,9.178,910.402,0.001,336.861,0.084,5367111.355,15.524,189.288,0.023,0.014,0.003
0.459,6.309,896.309,29.388,29.556,69.926,70.365,0.682,0,0.682,90,3.152,7.854,31.94,-102,5.944,0,0.303,-0,83.995,90,20877.827,6360.726,13.826,0.067,9.792,211.776,191.574,1.301,1676.673,8.201,4.301,0.413,0.292,0,0.121,0.448,1.144,1.489,-0,0,0,0,0,0,3.067,90,9.174,910.331,0.001,336.858,0.089,5676469.548,15.524,189.288,0.034,0.014,0.004
0.492,7.341,897.341,31.755,31.938,70.328,70.757,0.792,0,0.792,90,3.416,7.782,31.94,-102,6.299,0,0.648,0,83.979,90,20849.914,6332.813,13.805,0.067,9.792,211.168,191.46,1.269,1683.385,8.245,5.078,0.414,0.292,0.001,0.121,0.452,1.229,1.56,-0,0,0,0,0,0.001,3.519,90,9.167,910.215,0.001,336.854,0.096,6141660.748,15.524,189.288,0.05,0.014,0.004
0.542,9.017,899.017,35.286,35.49,70.912,71.34,0.973,0,0.973,90,3.805,7.805,31.94,-102,5.983,0,1.272,0,83.931,90,20808.561,6291.46,13.774,0.067,9.792,211.722,191.291,1.316,1693.329,8.31,6.217,0.414,0.292,0.001,0.121,0.449,1.154,1.516,0,0,0,0,0,0.002,3.728,90,9.156,910.028,0.001,336.848,0.107,6816762.401,15.524,189.288,0.05,0.015,0.004
0.592,10.87,900.87,38.846,39.072,71.483,71.927,1.173,0,1.173,90,4.2,7.983,31.94,-102,5.111,0,1.981,0,83.85,90,20767.208,6250.107,13.742,0.067,9.792,213.308,191.121,1.429,1703.273,8.376,7.358,0.414,0.292,0.001,0.122,0.441,0.953,1.359,-0,0,0,0,0,0.003,3.535,90,9.144,909.821,0.001,336.84,0.118,7482029.338,15.524,189.288,0.05,0.015,0.005
0.642,12.902,902.902,42.434,42.683,72.053,72.502,1.393,0,1.393,90,4.601,8.058,31.94,-102,5.138,0,2.783,0,83.732,90,20725.855,6208.755,13.711,0.067,9.792,213.27,190.95,1.438,1713.217,8.442,8.801,0.415,0.292,0.001,0.122,0.442,0.959,1.374,0,0,0,0,0,0.005,3.96,90,9.131,909.594,0.001,336.832,0.129,8175974.914,15.524,189.288,0.05,0.015,0.005
0.692,15.114,905.114,46.051,46.322,72.606,73.08,1.633,0,1.633,90,5.009,8.311,31.94,-102,4.654,0,3.72,-0,83.569,90,20684.502,6167.402,13.679,0.067,9.792,214.206,190.779,1.509,1723.161,8.508,10.249,0.415,0.292,0.001,0.123,0.438,0.853,1.278,-0,0,0,0,0,0.008,4.012,90,9.117,909.347,0.001,336.824,0.139,8861294.938,15.524,189.288,0.05,0.015,0.006
0.742,17.507,907.507,49.694,49.991,73.142,73.658,1.894,0,1.894,90,5.434,8.702,31.94,-102,4.011,0,4.712,-0,83.359,90,20643.15,6126.049,13.648,0.067,9.792,215.506,190.607,1.604,1733.105,8.574,11.766,0.416,0.292,0.001,0.123,0.433,0.716,1.137,0,0,0,0,0,0.011,3.913,90,9.101,909.079,0.001,336.814,0.15,9546741.897,15.524,189.288,0.006,0.015,0.006
0.748,17.794,907.794,50.115,50.414,73.203,73.724,1.926,0,1.926,90,5.484,8.754,31.94,-102,3.937,0,4.828,-0,83.331,90,20638.394,6121.293,13.644,0.067,9.792,215.659,190.587,1.615,1734.249,8.582,11.948,0.416,0.292,0.001,0.123,0.433,0.701,1.121,-0,0,0,0,0,0.012,3.9,90,9.099,909.047,0.001,336.813,0.151,9625892.302,15.524,189.288,0.009,0.015,0.006
0.757,18.229,908.229,50.747,51.05,73.255,73.785,1.973,0,1.973,90,5.56,8.829,31.94,-102,3.83,0,5.002,-0,83.289,90,20630.821,6113.721,13.638,0.067,9.792,215.886,190.555,1.632,1735.135,8.589,12.224,0.416,0.292,0.001,0.123,0.432,0.679,1.096,-0,0,0,0,0,0.012,3.882,90,9.097,908.999,0.001,336.811,0.153,9744784.706,15.524,189.288,0.013,0.016,0.006
0.77,18.892,908.892,51.695,52.005,73.333,73.877,2.046,0,2.046,90,5.675,8.947,31.94,-102,3.67,0,5.264,0,83.223,90,20619.462,6102.362,13.63,0.067,9.792,216.225,190.508,1.657,1736.464,8.6,12.646,0.416,0.291,0.001,0.123,0.431,0.646,1.058,0,0,0,0,0,0.013,3.857,90,9.092,908.925,0.001,336.809,0.156,9923346.693,15.524,189.288,0.019,0.016,0.006
0.789,19.909,909.909,53.119,53.44,73.447,74.014,2.158,0,2.158,89.999,5.851,9.136,31.94,-102,3.433,0,5.657,0,83.117,90,20602.424,6085.323,13.616,0.067,9.792,216.738,190.437,1.694,1738.458,8.617,13.293,0.416,0.291,0.001,0.123,0.43,0.599,1,-0,0,0,0,0,0.014,3.819,90,9.086,908.811,0.001,336.805,0.16,10191628.294,15.524,189.288,0.029,0.016,0.007
0.818,21.486,911.486,55.26,55.598,73.611,74.219,2.332,0,2.332,89.999,6.121,9.48,31.94,-102,2.99,0,6.237,0,82.943,90,20576.866,6059.765,13.597,0.067,9.792,217.723,190.329,1.765,1741.448,8.643,14.271,0.417,0.291,0.002,0.124,0.427,0.512,0.887,0,0,0,0,0,0.016,3.669,90,9.075,908.635,0.001,336.799,0.167,10591977.54,15.524,189.288,0.044,0.016,0.007
0.862,23.97,913.97,58.479,58.844,73.847,74.524,2.609,0,2.609,89.999,6.548,10.026,31.94,-102,2.446,0,7.043,0,82.653,90,20538.529,6021.428,13.567,0.067,9.792,218.991,190.168,1.857,1745.933,8.681,15.853,0.417,0.291,0.002,0.124,0.424,0.409,0.741,-0,0,0,0,0,0.019,3.546,90,9.059,908.357,0.001,336.789,0.176,11198082.743,15.524,189.288,0.05,0.016,0.007
0.912,26.986,916.986,62.178,62.578,74.111,74.862,2.949,0,2.949,89.999,7.062,10.58,31.94,-102,2.284,0,7.992,-0,82.278,90,20494.629,5977.528,13.533,0.067,9.792,219.396,189.983,1.895,1751.07,8.726,17.932,0.418,0.291,0.002,0.125,0.424,0.379,0.697,0,0,0,0,0,0.021,3.908,90,9.04,908.02,0.001,336.777,0.187,11911201.369,15.524,189.288,0.05,0.017,0.008
0.962,30.188,920.188,65.889,66.327,74.34,75.203,3.315,0,3.315,89.999,7.609,11.365,31.94,-102,1.761,0,8.925,0,81.854,90,20450.729,5933.629,13.499,0.067,9.792,220.699,189.797,1.991,1756.206,8.77,20.036,0.418,0.291,0.002,0.125,0.422,0.286,0.545,0,0,0,0,0,0.023,3.898,90,9.019,907.663,0.001,336.764,0.199,12615034.917,15.524,189.288,0.05,0.017,0.008
1.012,33.575,923.575,69.611,70.093,74.528,75.547,3.71,0,3.71,89.999,8.203,12.365,31.94,-102,0.962,0,9.605,0.001,81.39,89.999,20406.829,5889.729,13.465,0.067,9.792,222.803,189.61,2.138,1761.342,8.815,22.212,0.419,0.291,0.003,0.126,0.42,0.151,0.297,-0,0,0,0,0,0.024,3.537,90,8.997,907.284,0.001,336.751,0.21,13310596.814,15.524,189.288,0.05,0.017,0.009
1.062,37.149,927.149,73.342,73.873,74.704,75.88,4.136,0,4.136,89.999,8.845,13.307,31.94,-102,0.493,0,9.997,0.002,80.899,89.999,20362.93,5845.829,13.43,0.067,9.792,224.128,189.422,2.236,1766.478,8.859,24.647,0.42,0.291,0.003,0.126,0.42,0.075,0.145,0,0,0,0,0,0.024,3.552,90,8.974,906.885,0.001,336.737,0.221,14020751.559,15.524,189.288,0.05,0.017,0.009
1.112,40.909,930.909,77.081,77.669,74.864,76.206,4.596,0,4.596,89.999,9.533,14.236,31.94,-102,0.172,0,10.198,0.004,80.393,89.999,20319.03,5801.929,13.396,0.067,9.792,225.076,189.234,2.309,1771.615,8.904,27.281,0.421,0.291,0.003,0.127,0.421,0.026,0.037,0,0,0,0,0,0.022,3.752,90,8.949,906.465,0.001,336.722,0.232,14739181.942,15.524,189.288,0.05,0.017,0.01
1.162,44.857,934.857,80.828,81.478,74.99,76.529,5.091,0,5.091,89.999,10.271,15.271,31.94,-102,0.286,0,-10.082,0.003,79.884,89.999,20275.13,5758.029,13.361,0.066,9.792,224.769,189.044,2.301,1776.751,8.949,30.062,0.422,0.29,0.004,0.128,0.422,0.043,0.12,-0,0,0,0,0,-0.02,3.734,90,8.923,906.024,0.001,336.706,0.244,15452926.184,15.524,189.288,0.05,0.017,0.01
1.212,48.992,938.992,84.58,85.3,75.106,76.845,5.624,0,5.624,89.999,11.058,16.258,31.94,-102,0.601,0,-9.675,0.002,79.389,89.999,20231.23,5714.129,13.326,0.066,9.792,223.895,188.854,2.257,1781.887,8.995,33.042,0.423,0.29,0.004,0.128,0.423,0.093,0.225,0,0,0,0,0,-0.017,3.871,90,8.897,905.562,0.001,336.69,0.255,16173762.009,15.524,189.288,0.05,0.018,0.011
1.262,53.315,943.315,88.337,89.135,75.194,77.158,6.197,0,6.197,89.999,11.899,17.296,31.94,-102,0.995,0,-8.817,0.001,78.925,89.998,20187.33,5670.23,13.291,0.066,9.792,222.836,188.663,2.201,1787.024,9.04,36.193,0.424,0.29,0.004,0.129,0.425,0.156,0.356,0,0,0,0,0,-0.013,3.805,90,8.868,905.079,0.001,336.673,0.266,16889894.629,15.524,189.288,0.05,0.018,0.011
1.312,57.826,947.826,92.101,92.983,75.343,77.451,6.814,0,6.814,89.999,12.779,17.946,31.94,-102,0.882,0,-7.852,0.001,78.508,89.998,20143.431,5626.33,13.256,0.066,9.792,223.169,188.472,2.235,1792.16,9.086,39.532,0.425,0.29,0.005,0.13,0.426,0.138,0.317,-0,0,0,0,0,-0.009,4.472,90,8.839,904.575,0.001,336.655,0.278,17632649.306,15.524,189.288,0.05,0.018,0.012
1.362,62.525,952.525,95.871,96.844,75.439,77.747,7.476,0,7.476,89.998,13.698,18.803,31.94,-102,1.138,0,-6.679,0.001,78.144,89.998,20099.531,5582.43,13.22,0.066,9.792,222.508,188.279,2.205,1797.296,9.132,43.018,0.426,0.29,0.005,0.131,0.427,0.18,0.403,-0,0,0,0,0,-0.006,4.448,90,8.809,904.05,0.001,336.637,0.29,18353805.518,15.524,189.288,0.05,0.018,0.012
1.412,67.413,957.413,99.645,100.717,75.552,78.033,8.185,0,8.185,89.998,14.658,19.518,31.94,-102,1.301,0,-5.121,0.001,77.847,89.997,20055.631,5538.53,13.185,0.066,9.792,222.108,188.085,2.192,1802.432,9.178,46.668,0.427,0.29,0.006,0.132,0.429,0.208,0.459,0,0,0,0,0,-0.003,4.443,90,8.777,903.504,0.001,336.618,0.301,19077188.451,15.524,189.288,0.05,0.018,0.013
1.462,72.49,962.49,103.427,104.604,75.731,78.3,8.942,0,8.942,89.998,15.643,19.895,31.94,-102,1.211,0,-3.447,0.001,77.633,89.997,20011.731,5494.63,13.149,0.066,9.792,222.377,187.891,2.221,1807.569,9.225,50.466,0.428,0.289,0.006,0.133,0.43,0.193,0.43,0,0,0,0,0,-0.001,4.753,90,8.744,902.936,0.001,336.598,0.313,19813451.103,15.524,189.288,0.05,0.018,0.013
1.512,77.756,967.756,107.218,108.503,75.914,78.562,9.749,0,9.749,89.998,16.648,20.225,31.94,-102,1.21,0,-1.647,0,77.505,89.997,19967.831,5450.731,13.113,0.066,9.792,222.415,187.696,2.236,1812.705,9.271,54.41,0.429,0.289,0.007,0.134,0.431,0.192,0.43,-0,0,0,0,0,-0,4.748,90,8.71,902.348,0.001,336.577,0.325,20539935.438,15.524,189.288,0.05,0.019,0.013
1.562,83.212,973.212,111.02,112.416,76.148,78.808,10.607,0,10.607,89.998,17.66,20.305,31.94,-102,1.102,0,0.149,0,77.468,89.997,19923.931,5406.831,13.077,0.066,9.792,222.735,187.5,2.27,1817.841,9.318,58.499,0.431,0.289,0.007,0.135,0.432,0.175,0.397,-0,0,0,0,0,0,4.786,90,8.674,901.739,0.001,336.555,0.337,21269437.252,15.524,189.288,0.05,0.019,0.014
1.612,88.858,978.858,114.832,116.342,76.356,79.056,11.515,0,11.515,89.998,18.681,20.485,31.94,-102,1.212,0,2.146,0,77.524,89.997,19880.032,5362.931,13.041,0.066,9.792,222.477,187.303,2.266,1822.977,9.365,62.714,0.432,0.289,0.008,0.136,0.434,0.193,0.437,-0,0,0,0,0,0,4.19,90,8.637,901.108,0.001,336.533,0.348,21976790.856,15.524,189.288,0.04,0.019,0.014
1.652,93.543,983.543,117.91,119.513,76.567,79.245,12.284,0,12.284,89.998,19.505,20.427,31.94,-102,1.22,0,3.953,0.001,77.646,89.997,19844.685,5327.585,13.012,0.066,9.792,222.485,187.144,2.276,1827.113,9.403,66.202,0.433,0.288,0.008,0.137,0.435,0.195,0.441,-0,0,0,0,0,0.001,3.699,90,8.607,900.584,0.001,336.515,0.357,22546937.225,15.524,189.288,0.05,0.019,0.015
1.702,99.534,989.534,121.735,123.45,76.443,78.912,13.285,0.001,13.285,89.998,20.507,19.584,31.94,-102,0.842,0,5.978,0.002,77.897,89.996,19801.015,5283.914,12.976,0.066,9.792,223.542,186.946,2.357,1821.672,9.396,70.664,0.435,0.288,0.009,0.138,0.435,0.132,0.308,0,0,0,0,0,0.003,3.732,90,8.568,899.915,0.001,336.491,0.369,23277073.69,15.524,189.288,0.05,0.019,0.015
1.752,105.717,995.717,125.555,127.376,76.339,78.568,14.334,0.001,14.334,89.997,21.462,18.583,31.94,-102,0.478,0,7.372,0.004,78.233,89.996,19757.344,5240.243,12.939,0.066,9.792,224.599,186.748,2.438,1816.23,9.388,75.286,0.436,0.288,0.009,0.139,0.436,0.074,0.175,-0,0,0,0,0,0.004,3.602,90,8.528,899.224,0.001,336.467,0.381,23997450.26,15.524,189.288,0.05,0.02,0.016
1.802,112.09,1002.09,129.369,131.288,76.232,78.216,15.43,0.001,15.43,89.997,22.364,17.506,31.94,-102,0.147,0,8.06,0.012,78.622,89.995,19713.673,5196.572,12.903,0.066,9.792,225.595,186.549,2.515,1810.789,9.381,80.078,0.438,0.288,0.01,0.14,0.438,0.022,0.051,0,0,0,0,0,0.005,3.325,90,8.486,898.523,0.001,336.442,0.392,24708763.789,15.524,189.288,0.05,0.02,0.016
1.852,118.653,1008.653,133.177,135.185,76.09,77.861,16.569,0.001,16.569,89.997,23.215,16.51,31.94,-102,0.081,0,-8.113,0.022,79.029,89.994,19670.002,5152.901,12.866,0.066,9.792,225.829,186.349,2.543,1805.348,9.373,85.003,0.439,0.287,0.011,0.141,0.439,0.012,0.036,-0,0,0,0,0,-0.005,2.798,90,8.444,897.825,0.001,336.416,0.403,25407558.139,15.524,189.288,0.05,0.02,0.017
1.902,125.407,1015.407,136.979,139.067,75.973,77.485,17.75,0.001,17.75,89.997,24.008,15.233,31.94,-102,0.471,0,-7.335,0.003,79.419,89.994,19626.331,5109.23,12.829,0.066,9.792,224.743,186.148,2.486,1799.907,9.366,90.264,0.441,0.287,0.011,0.142,0.441,0.073,0.184,0,0,0,0,0,-0.004,2.745,90,8.4,897.107,0.001,336.389,0.415,26119153.493,15.524,189.288,0.05,0.02,0.017
1.952,132.351,1022.351,140.774,142.931,75.818,77.103,18.969,0.001,18.969,89.997,24.738,14.017,31.94,-102,0.826,0,-5.466,-0.001,79.744,89.993,19582.66,5065.56,12.792,0.066,9.792,223.794,185.946,2.438,1794.465,9.359,95.795,0.443,0.287,0.012,0.144,0.443,0.13,0.319,0,0,0,0,0,-0.002,2.835,90,8.355,896.368,0.001,336.362,0.426,26831245.927,15.524,189.288,0.05,0.02,0.018
2.002,139.484,1029.484,144.559,146.777,75.576,76.723,20.223,0.001,20.223,89.997,25.418,13.218,31.94,-102,1.008,-0,-2.704,-0.002,79.951,89.992,19538.989,5021.889,12.755,0.066,9.792,223.343,185.743,2.422,1789.024,9.351,101.431,0.444,0.287,0.013,0.145,0.446,0.16,0.387,0,0,0,0,0,-0,2.832,90,8.308,895.609,0.001,336.334,0.438,27535135.348,15.524,189.288,0.05,0.02,0.018
2.052,146.807,1036.807,148.33,150.603,75.265,76.338,21.51,0.001,21.51,89.997,26.065,12.754,31.94,-102,1.115,-0,0.681,-0.003,80.004,89.991,19495.319,4978.218,12.718,0.066,9.792,223.103,185.539,2.42,1783.583,9.343,107.268,0.446,0.286,0.014,0.146,0.448,0.178,0.431,-0,0,0,0,0,0,3.068,90,8.261,894.83,0.001,336.305,0.449,28242707.008,15.524,189.288,0.05,0.021,0.019
2.102,154.317,1044.317,152.083,154.41,74.835,75.955,22.83,0.001,22.83,89.996,26.706,12.994,31.94,-102,1.003,0,4.257,-0.004,79.879,89.99,19451.648,4934.547,12.681,0.065,9.792,223.453,185.335,2.455,1778.142,9.336,113.088,0.448,0.286,0.014,0.148,0.449,0.159,0.391,0,0,0,0,0,0.001,3.196,90,8.212,894.032,0.001,336.275,0.461,28941583.945,15.524,189.288,0.05,0.021,0.019
2.152,162.015,1052.015,155.812,158.198,74.284,75.574,24.181,0.002,24.181,89.996,27.376,13.902,31.94,-102,0.706,0,7.301,-0.007,79.587,89.99,19407.977,4890.876,12.643,0.065,9.792,224.316,185.129,2.524,1772.7,9.328,118.941,0.45,0.286,0.015,0.149,0.451,0.111,0.276,-0,0,0,0,0,0.003,3.246,90,8.162,893.213,0.001,336.245,0.472,29632923.844,15.524,189.288,0.05,0.021,0.02
2.202,169.898,1059.898,159.512,161.967,73.687,75.179,25.568,0.002,25.568,89.996,28.094,14.904,31.94,-102,0.468,-0,9.527,-0.009,79.163,89.99,19364.306,4847.205,12.605,0.065,9.792,225.035,184.923,2.584,1767.259,9.321,125.181,0.452,0.285,0.016,0.15,0.452,0.073,0.183,-0,0,0,0,0,0.005,3.794,90,8.111,892.374,0.001,336.214,0.484,30337508.845,15.524,189.288,0.05,0.021,0.02
2.252,177.965,1067.965,163.177,165.714,72.931,74.805,26.992,0.002,26.992,89.996,28.882,16.643,31.94,-102,0.03,-0,-10.364,-0.107,78.658,89.991,19320.635,4803.534,12.567,0.065,9.792,226.357,184.715,2.682,1761.818,9.313,131.405,0.454,0.285,0.017,0.152,0.454,0.005,0.017,0,0,0,0,0,-0.005,3.761,90,8.058,891.516,0.001,336.182,0.495,31016028.379,15.524,189.288,0.05,0.021,0.021
2.302,186.215,1076.215,166.803,169.437,72.086,74.446,28.458,0.002,28.458,89.996,29.764,18.599,31.94,-102,0.584,-0,-8.961,-0.004,78.165,89.993,19276.964,4759.864,12.529,0.065,9.791,224.809,184.507,2.596,1756.377,9.305,137.902,0.456,0.285,0.018,0.153,0.456,0.091,0.241,0,0,0,0,0,-0.004,3.42,90,8.005,890.639,0.001,336.15,0.506,31678019.071,15.524,189.288,0.05,0.022,0.021
2.352,194.645,1084.645,170.387,173.137,71.324,74.069,29.97,0.002,29.97,89.995,30.731,19.975,31.94,-102,0.921,0,-5.502,-0.001,77.796,89.993,19233.293,4716.193,12.491,0.065,9.791,223.933,184.298,2.553,1750.935,9.298,144.694,0.458,0.284,0.019,0.155,0.459,0.146,0.375,-0,0,0,0,0,-0.001,3.263,90,7.95,889.742,0.001,336.116,0.517,32341026.76,15.524,189.288,0.048,0.022,0.022
2.4,202.829,1092.829,173.767,176.633,70.834,73.65,31.454,0.003,31.454,89.995,31.689,20.17,31.94,-102,0.903,0,-1.377,-0.003,77.632,89.994,19191.755,4674.655,12.454,0.065,9.791,224.036,184.098,2.573,1745.76,9.29,151.246,0.46,0.284,0.02,0.156,0.461,0.144,0.369,-0,0,0,0,0,-0,3.551,90,7.897,888.871,0.001,336.084,0.528,32982372.611,15.524,189.288,0.046,0.022,0.022
2.446,210.943,1100.943,177.036,180.015,70.532,73.201,32.942,0.003,32.942,89.995,32.611,19.585,31.94,-102,0.707,-0,2.34,-0.002,77.657,89.995,19151.351,4634.25,12.418,0.065,9.791,224.634,183.902,2.624,1740.726,9.283,157.633,0.462,0.284,0.021,0.158,0.463,0.112,0.292,0,0,0,0,0,0,3.842,90,7.844,888.008,0.001,336.052,0.538,33602044.277,15.524,189.288,0.05,0.022,0.022
2.496,219.883,1109.883,180.558,183.65,70.349,72.682,34.596,0.003,34.596,89.995,33.56,18.264,31.94,-102,0.351,-0,5.119,-0.005,77.851,89.994,19107.68,4590.579,12.38,0.065,9.791,225.708,183.69,2.707,1735.284,9.275,164.664,0.465,0.283,0.022,0.159,0.465,0.054,0.147,-0,0,0,0,0,0.001,4.155,90,7.786,887.057,0.001,336.017,0.549,34266669.347,15.524,189.288,0.05,0.022,0.023
2.546,228.998,1118.998,184.071,187.265,70.183,72.159,36.296,0.003,36.296,89.995,34.436,16.773,31.94,-102,0.001,-0,-5.645,-2.187,78.138,89.994,19064.009,4546.909,12.341,0.065,9.791,226.799,183.477,2.791,1729.843,9.267,171.874,0.467,0.283,0.023,0.161,0.467,0,0.002,0,0,0,0,0,-0.001,4.229,90,7.727,886.088,0.001,335.981,0.56,34916675.475,15.524,189.288,0.05,0.022,0.023
2.596,238.29,1128.29,187.575,190.857,69.969,71.641,38.039,0.004,38.039,89.995,35.239,15.386,31.94,-102,0.292,0,-5.147,-0.008,78.425,89.993,19020.338,4503.238,12.301,0.065,9.791,226.017,183.263,2.754,1724.402,9.259,179.295,0.469,0.283,0.024,0.162,0.47,0.045,0.126,-0,0,0,0,0,-0.001,4.176,90,7.666,885.099,0.001,335.945,0.571,35555891.775,15.524,189.288,0.05,0.023,0.024
2.646,247.756,1137.756,191.069,194.425,69.747,71.107,39.819,0.004,39.819,89.994,35.968,13.842,31.94,-102,0.638,-0,-2.282,-0.004,78.62,89.992,18976.668,4459.567,12.262,0.065,9.791,225.109,183.048,2.709,1718.961,9.251,187.271,0.472,0.282,0.026,0.164,0.473,0.101,0.273,0,0,0,0,0,-0,4.709,90,7.605,884.092,0.001,335.907,0.582,36211311.756,15.524,189.288,0.03,0.023,0.024
2.676,253.554,1143.554,193.17,196.566,69.461,70.803,40.911,0.004,40.911,89.994,36.383,13.718,31.94,-102,0.63,-0,0.153,-0.006,78.652,89.991,18950.306,4433.205,12.238,0.065,9.791,225.178,182.918,2.722,1715.676,9.247,191.855,0.474,0.282,0.027,0.165,0.474,0.099,0.271,0,0,0,0,0,0,4.599,90,7.567,883.476,0.001,335.884,0.588,36587244.332,15.524,189.288,0.045,0.023,0.024
2.721,262.371,1152.371,196.295,199.754,68.614,70.007,42.572,0.004,42.572,89.994,37.01,13.895,31.94,-102,0.546,-0,3.478,-0.003,78.568,89.99,18915.273,4398.172,12.207,0.065,9.791,225.482,182.744,2.753,1704.767,9.205,198.865,0.476,0.282,0.028,0.166,0.476,0.086,0.236,-0,0,0,0,0,0,4.635,90,7.51,882.538,0.001,335.85,0.597,37153313.573,15.524,189.288,0.05,0.023,0.025
2.771,272.271,1162.271,199.7,203.231,67.553,69.123,44.44,0.005,44.44,89.994,37.718,14.65,31.94,-102,0.364,-0,6.703,-0.004,78.309,89.99,18876.581,4359.481,12.171,0.065,9.791,226.081,182.552,2.804,1692.719,9.159,206.797,0.479,0.281,0.029,0.168,0.479,0.057,0.158,-0,0,0,0,0,0.001,4.931,90,7.445,881.485,0.001,335.811,0.608,37779057.324,15.524,189.288,0.05,0.023,0.025
2.821,282.34,1172.34,203.047,206.663,66.299,68.266,46.345,0.005,46.345,89.994,38.488,16.271,31.94,-102,0.007,-0,-8.043,-0.136,77.93,89.991,18837.89,4320.789,12.136,0.065,9.791,227.208,182.359,2.889,1680.671,9.112,214.699,0.481,0.281,0.031,0.17,0.481,0.001,0.005,-0,0,0,0,0,-0.002,4.906,90,7.38,880.414,0.001,335.771,0.618,38382786.15,15.524,189.288,0.05,0.023,0.026
2.871,292.574,1182.574,206.329,210.047,64.982,67.433,48.291,0.005,48.291,89.994,39.347,18.013,31.94,-101.999,0.391,-0,-6.465,-0.002,77.556,89.991,18799.199,4282.098,12.101,0.065,9.791,226.168,182.165,2.834,1668.623,9.065,222.805,0.484,0.281,0.032,0.171,0.484,0.061,0.175,-0,0,0,0,0,-0.001,4.712,90,7.313,879.325,0.001,335.731,0.628,38970030.495,15.524,189.288,0.05,0.027,0.026
2.921,302.972,1192.972,209.548,213.384,63.843,66.562,50.281,0.006,50.281,89.994,40.275,18.83,31.94,-101.999,0.559,-0,-2.563,-0.001,77.324,89.992,18760.507,4243.406,12.065,0.065,9.791,225.773,181.97,2.822,1656.575,9.018,231.12,0.487,0.28,0.033,0.173,0.487,0.088,0.25,0,0,0,0,0,-0,4.711,90,7.246,878.219,0.001,335.69,0.638,39554595.597,15.524,189.288,0.046,0.027,0.027
2.967,312.617,1202.617,212.448,216.393,63.014,65.714,52.142,0.006,52.142,89.993,41.131,18.643,31.94,-101.999,0.535,-0,1.364,-0.005,77.297,89.992,18725.131,4208.031,12.032,0.065,9.791,225.92,181.791,2.843,1645.56,8.975,238.67,0.489,0.28,0.035,0.175,0.49,0.085,0.24,-0,0,0,0,0,0,4.678,90,7.183,877.193,0.001,335.652,0.647,40078903.771,15.524,189.288,0.046,0.028,0.027
3.013,322.514,1212.514,215.346,219.4,62.328,64.829,54.064,0.006,54.064,89.993,41.98,17.832,31.94,-101.999,0.418,-0,5.154,-0.003,77.451,89.993,18689.33,4172.23,11.999,0.065,9.791,226.331,181.609,2.881,1634.412,8.932,246.139,0.492,0.28,0.036,0.176,0.492,0.066,0.189,0,0,0,0,0,0.001,4.309,90,7.119,876.14,0.001,335.613,0.656,40587970.146,15.524,189.288,0.05,0.028,0.027
3.063,333.359,1223.359,218.45,222.607,61.829,63.806,56.185,0.007,56.185,89.993,42.823,15.762,31.94,-101.999,0.062,-0,7.318,-0.024,77.775,89.992,18650.639,4133.538,11.963,0.065,9.791,227.454,181.412,2.966,1622.364,8.884,254.448,0.495,0.279,0.038,0.178,0.495,0.01,0.027,0,0,0,0,0,0.001,4.26,90,7.048,874.987,0.001,335.57,0.666,41142107.855,15.524,189.288,0.05,0.028,0.028
3.113,344.358,1234.358,221.53,225.77,61.35,62.788,58.345,0.007,58.345,89.993,43.549,13.364,31.94,-101.999,0.345,-0,-5.901,-0.005,78.12,89.991,18611.948,4094.847,11.927,0.064,9.791,226.716,181.214,2.931,1610.316,8.837,263.206,0.498,0.279,0.04,0.179,0.498,0.054,0.161,-0,0,0,0,0,-0.001,4.449,90,6.977,873.817,0.001,335.527,0.676,41695195.444,15.524,189.288,0.05,0.028,0.028
3.163,355.511,1245.511,224.581,228.884,60.658,61.807,60.538,0.008,60.538,89.993,44.176,11.863,31.94,-101.999,0.564,-0,-1.578,-0.006,78.315,89.99,18573.256,4056.156,11.89,0.064,9.791,226.179,181.015,2.909,1598.268,8.789,272.09,0.501,0.278,0.041,0.181,0.501,0.09,0.261,0,0,0,0,0,-0,4.581,90,6.904,872.63,0.001,335.483,0.685,42235456.102,15.524,189.288,0.038,0.028,0.029
3.201,364.03,1254.03,226.858,231.203,59.969,61.067,62.214,0.008,62.214,89.993,44.615,11.526,31.94,-101.999,0.596,-0,2.693,-0.005,78.295,89.989,18544.051,4026.95,11.863,0.064,9.791,226.158,180.864,2.918,1589.174,8.753,278.869,0.503,0.278,0.043,0.182,0.504,0.095,0.277,-0,0,0,0,0,0,4.853,90,6.849,871.724,0.001,335.449,0.692,42642859.962,15.524,189.288,0.035,0.028,0.029
3.236,371.953,1261.953,228.928,233.314,59.133,60.392,63.772,0.008,63.772,89.993,45.026,12.268,31.94,-101.999,0.443,-0,6.286,-0.008,78.136,89.989,18517.147,4000.047,11.838,0.064,9.791,226.655,180.725,2.959,1580.797,8.719,284.874,0.506,0.278,0.044,0.183,0.506,0.07,0.207,-0,0,0,0,0,0.001,4.917,90,6.797,870.881,0.001,335.418,0.699,43005593.512,15.524,189.288,0.046,0.029,0.029
3.281,382.483,1272.483,231.605,236.055,57.913,59.507,65.844,0.009,65.844,89.993,45.62,13.679,31.94,-101.999,0.192,-0,9.149,-0.019,77.775,89.988,18481.761,3964.66,11.804,0.064,9.791,227.466,180.541,3.023,1569.778,8.675,293.114,0.509,0.278,0.046,0.185,0.509,0.03,0.09,-0,0,0,0,0,0.002,5.374,90,6.729,869.761,0.001,335.377,0.707,43489764.134,15.524,189.288,0.05,0.029,0.029
3.331,394.135,1284.135,234.463,239.002,56.342,58.619,68.143,0.009,68.143,89.992,46.359,16.177,31.94,-101.999,0.252,-0,-9.077,-0.013,77.301,89.989,18443.07,3925.969,11.767,0.064,9.791,227.382,180.34,3.03,1557.73,8.627,302.058,0.512,0.277,0.048,0.187,0.512,0.04,0.122,0,0,0,0,0,-0.002,5.394,90,6.653,868.522,0.001,335.331,0.716,43990096.552,15.524,189.288,0.05,0.029,0.03
3.381,405.928,1295.928,237.24,241.896,54.802,57.797,70.482,0.01,70.482,89.992,47.228,18.364,31.94,-101.999,0.635,0,-4.037,-0.004,76.956,89.991,18404.378,3887.278,11.73,0.064,9.791,226.375,180.137,2.978,1545.682,8.578,311.053,0.515,0.277,0.05,0.188,0.516,0.102,0.304,0,0,0,0,0,-0,4.97,90,6.576,867.267,0.001,335.284,0.725,44462099.746,15.524,189.288,0.029,0.029,0.03
3.41,412.779,1302.779,238.808,243.537,54.169,57.249,71.85,0.01,71.85,89.992,47.763,18.524,31.94,-101.999,0.669,-0,0.25,-0.008,76.901,89.992,18382.106,3865.005,11.709,0.064,9.791,226.331,180.02,2.983,1538.746,8.55,316.219,0.517,0.277,0.051,0.189,0.518,0.108,0.321,0,0,0,0,0,0,4.873,90,6.532,866.539,0.001,335.257,0.729,44734637.837,15.524,189.288,0.027,0.03,0.03
3.437,419.205,1309.205,240.256,245.053,53.823,56.64,73.137,0.01,73.137,89.992,48.25,17.64,31.94,-101.999,0.531,-0,3.912,-0.01,76.959,89.993,18361.348,3844.248,11.689,0.064,9.791,226.77,179.911,3.018,1532.283,8.523,321.053,0.519,0.276,0.052,0.19,0.519,0.085,0.256,0,0,0,0,0,0,5.06,90,6.49,865.855,0.001,335.232,0.734,44996394.64,15.524,189.288,0.033,0.03,0.031
3.47,427.227,1317.227,242.041,246.914,53.486,55.881,74.752,0.01,74.752,89.992,48.811,16.184,31.94,-101.999,0.319,-0,7.098,-0.019,77.146,89.993,18335.604,3818.504,11.664,0.064,9.791,227.436,179.775,3.07,1524.267,8.491,326.884,0.521,0.276,0.054,0.191,0.521,0.051,0.155,0,0,0,0,0,0.001,5.001,90,6.438,865.002,0.001,335.2,0.74,45305411.812,15.524,189.288,0.05,0.031,0.031
3.52,439.372,1329.372,244.699,249.666,53.059,54.761,77.207,0.011,77.207,89.992,49.555,13.549,31.94,-101.999,0.051,0,-8.704,-0.125,77.558,89.993,18296.989,3779.888,11.627,0.064,9.791,228.308,179.57,3.139,1512.242,8.442,335.653,0.524,0.276,0.056,0.193,0.524,0.008,0.027,-0,0,0,0,0,-0.002,4.664,90,6.359,863.71,0.001,335.153,0.748,45750392.521,15.524,189.288,0.05,0.031,0.031
3.57,451.673,1341.673,247.34,252.376,52.526,53.697,79.7,0.011,79.7,89.992,50.168,11.153,31.94,-101.999,0.367,0,-5.924,-0.02,77.939,89.989,18258.297,3741.197,11.589,0.064,9.791,227.473,179.365,3.099,1500.194,8.392,344.732,0.528,0.276,0.058,0.194,0.528,0.058,0.181,0,0,0,0,0,-0.001,4.339,90,6.279,862.401,0.001,335.104,0.756,46185999.621,15.524,189.288,0.044,0.032,0.031
3.614,462.616,1352.616,249.638,254.721,51.806,52.791,81.92,0.012,81.92,89.992,50.634,10.151,31.94,-101.999,0.47,0,-1.199,-0.01,78.1,89.986,18224.221,3707.12,11.556,0.064,9.791,227.254,179.183,3.096,1489.583,8.348,352.782,0.531,0.275,0.06,0.196,0.531,0.075,0.233,0,0,0,0,0,-0,4.115,90,6.208,861.237,0.001,335.061,0.763,46563057.688,15.524,189.288,0.034,0.032,0.032
3.648,471.017,1361.017,251.364,256.48,51.082,52.096,83.624,0.012,83.624,89.992,50.973,10.228,31.94,-101.999,0.43,-0,2.76,-0.008,78.073,89.985,18198.268,3681.167,11.531,0.064,9.791,227.426,179.044,3.117,1481.502,8.315,358.948,0.533,0.275,0.062,0.197,0.534,0.069,0.214,-0,0,0,0,0,0,4.098,90,6.153,860.344,0.001,335.028,0.768,46850487.928,15.524,189.288,0.036,0.032,0.032
3.684,480.088,1370.088,253.184,258.34,50.145,51.35,85.463,0.013,85.463,89.992,51.354,11.06,31.94,-101.999,0.287,0,6.204,-0.009,77.908,89.985,18170.443,3653.343,11.503,0.064,9.791,227.905,178.894,3.157,1472.838,8.279,365.618,0.536,0.275,0.064,0.198,0.536,0.046,0.143,-0,0,0,0,0,0.001,4.215,90,6.094,859.379,0.001,334.992,0.774,47158523.494,15.524,189.288,0.05,0.033,0.032
3.734,492.81,1382.81,255.652,260.88,48.532,50.41,88.046,0.013,88.046,89.991,51.965,13.632,31.94,-101.999,0.126,-0,-7.485,-0.014,77.543,89.988,18131.752,3614.651,11.465,0.064,9.791,228.463,178.685,3.206,1460.79,8.229,374.638,0.54,0.274,0.066,0.199,0.54,0.02,0.065,-0,0,0,0,0,-0.001,3.92,90,6.012,858.026,0.001,334.942,0.781,47559731.834,15.524,189.288,0.05,0.033,0.033
3.784,505.652,1395.652,258.039,263.366,47.003,49.529,90.662,0.014,90.662,89.991,52.705,15.615,31.94,-101.999,0.437,0,-3.224,-0.008,77.259,89.991,18093.061,3575.96,11.427,0.064,9.791,227.643,178.476,3.167,1448.742,8.179,383.925,0.544,0.274,0.069,0.201,0.544,0.07,0.222,0,0,0,0,0,-0,3.576,90,5.928,856.66,0.001,334.891,0.789,47948046.7,15.524,189.288,0.033,0.034,0.033
3.817,514.15,1404.15,259.569,264.97,46.254,48.876,92.401,0.014,92.401,89.991,53.223,15.794,31.94,-101.999,0.478,0,1.09,-0.011,77.223,89.993,18067.652,3550.551,11.402,0.064,9.79,227.58,178.338,3.172,1440.83,8.145,389.963,0.546,0.274,0.07,0.202,0.546,0.077,0.244,-0,0,0,0,0,0,3.367,90,5.873,855.756,0.001,334.858,0.793,48197668.976,15.524,189.288,0.029,0.034,0.033
3.846,521.824,1411.824,260.926,266.39,45.784,48.213,93.978,0.015,93.978,89.991,53.68,15.112,31.94,-101.999,0.401,0,4.875,-0.01,77.313,89.993,18044.834,3527.734,11.379,0.064,9.79,227.851,178.213,3.197,1433.725,8.115,395.245,0.548,0.274,0.072,0.203,0.549,0.064,0.205,-0,0,0,0,0,0,3.147,90,5.823,854.939,0.001,334.828,0.798,48416567.958,15.524,189.288,0.035,0.034,0.033
3.881,530.891,1420.891,262.506,268.038,45.486,47.339,95.846,0.015,95.846,89.991,54.172,13.117,31.94,-101.999,0.142,0,7.695,-0.037,77.538,89.992,18018.026,3500.926,11.353,0.064,9.79,228.665,178.067,3.259,1425.377,8.08,401.628,0.551,0.273,0.074,0.204,0.551,0.022,0.073,0,0,0,0,0,0.001,3.163,90,5.764,853.975,0.001,334.792,0.803,48679577.622,15.524,189.288,0.009,0.034,0.033
3.89,533.317,1423.317,262.926,268.473,45.421,47.109,96.347,0.015,96.347,89.991,54.29,12.498,31.94,-101.999,0.061,0,7.966,-0.086,77.61,89.992,18010.88,3493.779,11.345,0.064,9.79,228.921,178.028,3.278,1423.152,8.071,403.366,0.552,0.273,0.074,0.204,0.552,0.01,0.03,-0,0,0,0,0,0.001,3.177,90,5.748,853.717,0.001,334.782,0.804,48749167.965,15.524,189.288,0.014,0.035,0.033
3.904,536.964,1426.964,263.556,269.123,45.479,46.921,97.1,0.015,97.1,89.991,54.457,11.545,31.94,-101.999,0.069,0,-7.957,-0.08,77.721,89.991,18001.222,3484.122,11.336,0.064,9.79,228.922,177.975,3.282,1422.647,8.072,406.048,0.553,0.273,0.075,0.204,0.553,0.011,0.037,-0,0,0,0,0,-0.001,3.237,90,5.725,853.329,0.001,334.768,0.806,48854590.33,15.524,189.288,0.021,0.035,0.034
3.925,542.45,1432.45,264.502,270.095,45.573,46.654,98.234,0.016,98.234,89.991,54.68,9.985,31.94,-101.999,0.279,0,-6.844,-0.023,77.877,89.989,17986.736,3469.635,11.321,0.064,9.79,228.34,177.895,3.249,1421.888,8.074,410.329,0.555,0.273,0.077,0.205,0.555,0.045,0.146,-0,0,0,0,0,-0.001,3.484,90,5.689,852.745,0.001,334.746,0.809,49017861.693,15.524,189.288,0.031,0.035,0.034
3.956,550.717,1440.717,265.923,271.543,45.567,46.31,99.943,0.016,99.943,89.991,54.962,8.26,31.94,-101.999,0.5,0,-3.017,-0.009,78.036,89.986,17965.006,3447.906,11.299,0.064,9.79,227.757,177.776,3.22,1420.751,8.078,416.853,0.557,0.273,0.079,0.206,0.558,0.081,0.26,-0,0,0,0,0,-0,3.819,90,5.635,851.866,0.001,334.714,0.814,49259179.759,15.524,189.288,0.026,0.038,0.034
3.982,557.685,1447.685,267.112,272.75,45.355,46.03,101.383,0.016,101.383,89.991,55.17,7.852,31.94,-101.999,0.543,0,1.265,-0.011,78.06,89.985,17946.78,3429.679,11.281,0.064,9.79,227.681,177.676,3.221,1419.797,8.081,422.127,0.56,0.273,0.08,0.207,0.56,0.088,0.284,-0,0,0,0,0,0,3.967,90,5.59,851.125,0.001,334.686,0.817,49454400.658,15.524,189.288,0.024,0.038,0.034
4.006,564.039,1454.039,268.185,273.839,45.027,45.759,102.695,0.017,102.695,89.991,55.36,8.153,31.94,-101.999,0.497,0,5.134,-0.011,77.983,89.984,17930.23,3413.13,11.264,0.064,9.79,227.853,177.584,3.238,1418.931,8.083,426.906,0.562,0.273,0.082,0.208,0.562,0.08,0.26,0,0,0,0,0,0,4.165,90,5.549,850.449,0.001,334.661,0.821,49632665.324,15.524,189.288,0.026,0.038,0.034
4.031,570.933,1460.933,269.334,275.009,44.569,45.452,104.117,0.017,104.117,89.991,55.577,8.917,31.94,-101.999,0.398,0,8.814,-0.015,77.803,89.984,17912.348,3395.248,11.246,0.064,9.79,228.187,177.485,3.266,1417.995,8.086,432.288,0.564,0.272,0.084,0.208,0.565,0.064,0.208,-0,0,0,0,0,0.001,4.601,90,5.504,849.716,0.001,334.634,0.825,49832338.172,15.524,189.288,0.032,0.038,0.034
4.063,579.523,1469.523,270.74,276.448,43.74,45.125,105.89,0.017,105.89,89.991,55.889,11.092,31.94,-101.999,0.11,0,11.651,-0.038,77.47,89.985,17890.172,3373.071,11.224,0.064,9.79,229.084,177.362,3.332,1416.834,8.089,438.673,0.567,0.272,0.086,0.209,0.567,0.017,0.056,-0,0,0,0,0,0.002,4.828,90,5.448,848.802,0.001,334.6,0.829,50065391.553,15.524,189.288,0.048,0.039,0.034
4.111,592.491,1482.491,272.791,278.585,42.282,44.878,108.571,0.018,108.571,89.991,56.52,15.041,31.94,-101.999,0.413,0,-8.817,-0.005,76.951,89.987,17856.906,3339.806,11.19,0.064,9.79,228.279,177.177,3.292,1415.093,8.094,448.348,0.572,0.272,0.089,0.211,0.572,0.067,0.221,-0,0,0,0,0,-0.001,4.637,90,5.364,847.422,0.001,334.549,0.836,50389214.682,15.524,189.288,0.029,0.039,0.035
4.14,600.443,1490.443,274.012,279.872,41.677,44.657,110.222,0.018,110.222,89.99,56.975,16.039,31.94,-101.999,0.535,0,-4.093,-0.004,76.76,89.988,17836.63,3319.53,11.17,0.064,9.79,227.979,177.064,3.28,1414.031,8.098,454.645,0.574,0.272,0.091,0.212,0.575,0.087,0.286,-0,0,0,0,0,-0,4.798,90,5.312,846.577,0.001,334.518,0.84,50594425.939,15.524,189.288,0.022,0.039,0.035
4.162,606.541,1496.541,274.934,280.848,41.381,44.423,111.492,0.019,111.492,89.99,57.333,16.157,31.94,-101.999,0.55,0,-0.013,-0.007,76.715,89.989,17821.142,3304.041,11.154,0.064,9.79,227.974,176.978,3.285,1413.221,8.1,459.273,0.577,0.271,0.093,0.212,0.577,0.09,0.294,0,0,0,0,0,0,4.805,90,5.272,845.928,0.001,334.494,0.843,50744990.39,15.524,189.288,0.021,0.039,0.035
4.184,612.453,1502.453,275.821,281.786,41.242,44.131,112.726,0.019,112.726,89.99,57.676,15.706,31.94,-101.999,0.497,0,3.868,-0.007,76.757,89.989,17806.177,3289.076,11.139,0.064,9.79,228.161,176.894,3.302,1412.437,8.102,463.587,0.579,0.271,0.094,0.213,0.579,0.081,0.266,0,0,0,0,0,0,4.718,90,5.234,845.312,0.001,334.471,0.845,50886321.765,15.524,189.288,0.024,0.039,0.035
4.207,618.953,1508.953,276.791,282.809,41.264,43.732,114.087,0.019,114.087,89.99,58.033,14.483,31.94,-101.999,0.35,0,7.362,-0.012,76.891,89.99,17789.777,3272.676,11.122,0.063,9.79,228.623,176.802,3.338,1411.579,8.105,468.301,0.581,0.271,0.096,0.214,0.581,0.056,0.187,-0,0,0,0,0,0.001,4.646,90,5.192,844.654,0.001,334.445,0.849,51041995.156,15.524,189.288,0.033,0.04,0.035
4.24,628.155,1518.155,278.163,284.242,41.466,43.144,116.019,0.02,116.019,89.99,58.472,11.916,31.94,-101.999,0.038,0,9.636,-0.079,77.182,89.989,17766.656,3249.556,11.098,0.063,9.79,229.594,176.672,3.409,1410.369,8.108,475.181,0.584,0.271,0.099,0.215,0.584,0.006,0.02,-0,0,0,0,0,0.002,4.619,90,5.132,843.722,0.001,334.409,0.853,51262099.663,15.524,189.288,0.05,0.04,0.035
4.29,642.045,1532.045,280.229,286.369,41.547,42.474,118.941,0.021,118.941,89.99,58.98,8.824,31.94,-101.999,0.315,0,-6.753,-0.004,77.614,89.986,17731.976,3214.875,11.063,0.063,9.79,228.86,176.476,3.374,1408.554,8.114,485.61,0.589,0.271,0.103,0.216,0.589,0.051,0.172,-0,0,0,0,0,-0.001,4.179,90,5.042,842.317,0.001,334.354,0.859,51570993.231,15.524,189.288,0.035,0.04,0.036
4.325,651.911,1541.911,281.687,287.852,41.439,42.038,121.018,0.021,121.018,89.99,59.259,7.074,31.94,-101.999,0.511,0,-1.485,-0.003,77.765,89.985,17707.494,3190.393,11.037,0.063,9.79,228.357,176.338,3.351,1407.272,8.118,493.942,0.593,0.27,0.106,0.217,0.594,0.083,0.279,0,0,0,0,0,-0,4.455,90,4.978,841.318,0.001,334.315,0.864,51808067.717,15.524,189.288,0.021,0.04,0.036
4.347,657.953,1547.953,282.572,288.749,41.218,41.758,122.288,0.021,122.288,89.99,59.405,6.688,31.94,-101.999,0.55,0,2.752,-0.001,77.752,89.985,17692.565,3175.464,11.022,0.063,9.79,228.283,176.253,3.351,1406.491,8.12,499.199,0.596,0.27,0.108,0.218,0.596,0.09,0.301,-0,0,0,0,0,0,4.781,90,4.938,840.706,0.001,334.292,0.867,51957009.887,15.524,189.288,0.02,0.04,0.036
4.366,663.52,1553.52,283.379,289.567,40.791,41.485,123.458,0.022,123.458,89.99,59.543,7.557,31.94,-101.999,0.439,0,6.438,0.001,77.661,89.985,17678.851,3161.75,11.008,0.063,9.79,228.634,176.175,3.379,1405.773,8.122,503.4,0.598,0.27,0.11,0.218,0.598,0.071,0.241,-0,0,0,0,0,0.001,4.723,90,4.902,840.143,0.001,334.27,0.869,52078494.462,15.524,189.288,0.024,0.041,0.036
4.391,670.466,1560.466,284.369,290.578,40.086,41.182,124.918,0.022,124.918,89.99,59.75,9.436,31.94,-101.999,0.205,0,9.426,0.012,77.462,89.986,17661.793,3144.692,10.99,0.063,9.79,229.351,176.078,3.432,1404.88,8.125,508.536,0.601,0.27,0.112,0.219,0.601,0.033,0.112,-0,0,0,0,0,0.001,4.558,90,4.857,839.44,0.001,334.242,0.872,52224597.653,15.524,189.288,0.008,0.041,0.036
4.399,672.814,1562.814,284.698,290.918,39.823,41.099,125.411,0.022,125.411,89.99,59.831,10.159,31.94,-101.999,0.116,0,9.92,0.021,77.382,89.986,17656.04,3138.939,10.984,0.063,9.79,229.628,176.045,3.452,1404.579,8.126,510.315,0.602,0.27,0.113,0.219,0.602,0.019,0.062,-0,0,0,0,0,0.002,4.502,90,4.842,839.202,0.001,334.233,0.873,52273534.07,15.524,189.288,0.012,0.041,0.036
4.411,676.341,1566.341,285.175,291.41,37.145,38.592,126.153,0.022,126.153,89.99,59.959,10.468,31.94,-101.999,0.014,0,10.205,0.2,77.257,89.987,17649.734,3132.633,10.977,0.063,9.79,229.951,176.009,3.475,1362.198,7.884,513.199,0.603,0.27,0.114,0.219,0.603,0.002,0.006,-0,0,0,0,0,0.002,4.605,90,4.819,838.845,0.001,334.219,0.875,52351320.802,15.524,189.288,0.019,0.041,0.036
4.43,681.643,1571.643,285.827,292.089,33.146,34.878,127.268,0.023,127.268,89.99,60.157,10.853,31.94,-101.999,0.129,0,-9.768,0.027,77.07,89.988,17640.275,3123.174,10.968,0.063,9.79,229.639,175.955,3.458,1298.626,7.52,517.317,0.605,0.27,0.116,0.22,0.605,0.021,0.074,-0,0,0,0,0,-0.001,4.785,90,4.784,838.309,0.001,334.198,0.877,52458278.093,15.524,189.288,0.028,0.041,0.036
4.458,689.616,1579.616,286.668,292.975,27.221,29.442,128.948,0.023,128.948,89.99,60.464,11.218,31.94,-101.999,0.319,0,-7.34,0.01,76.827,89.989,17626.087,3108.986,10.953,0.063,9.79,229.118,175.874,3.43,1203.268,6.973,522.743,0.608,0.27,0.118,0.221,0.608,0.052,0.178,-0,0,0,0,0,-0.001,4.946,90,4.732,837.502,0.001,334.167,0.88,52590455.707,15.524,189.288,0.032,0.042,0.037
4.49,698.867,1588.867,287.437,293.803,20.584,23.345,130.902,0.024,130.902,89.99,60.826,11.013,31.94,-101.999,0.468,0,-2.219,0.006,76.669,89.989,17609.672,3092.571,10.936,0.063,9.79,228.721,175.78,3.41,1092.948,6.34,527.501,0.611,0.269,0.12,0.221,0.611,0.076,0.261,-0,0,0,0,0,-0,4.811,90,4.672,836.565,0.001,334.13,0.882,52695043.101,15.524,189.288,0.022,0.042,0.037
4.512,705.158,1595.158,287.84,294.245,16.295,19.222,132.235,0.024,132.235,89.99,61.058,10.195,31.94,-101.999,0.49,0,1.886,0.008,76.665,89.988,17598.531,3081.43,10.924,0.063,9.79,228.675,175.716,3.411,1018.071,5.909,529.732,0.612,0.269,0.121,0.222,0.613,0.08,0.274,0,0,0,0,0,0,4.577,90,4.631,835.929,0.001,334.106,0.884,52738913.449,15.524,189.288,0.021,0.042,0.037
4.533,711.138,1601.138,288.138,294.578,12.394,15.256,133.505,0.024,133.505,89.99,61.258,8.895,31.94,-101.999,0.449,0,5.771,0.011,76.745,89.987,17587.953,3070.853,10.913,0.063,9.79,228.805,175.656,3.424,946.98,5.5,531.057,0.613,0.269,0.122,0.222,0.613,0.073,0.25,0,0,0,0,0,0.001,4.241,90,4.593,835.323,0.001,334.082,0.884,52760293.885,15.524,189.288,0.023,0.042,0.037
4.555,717.671,1607.671,288.373,294.844,8.378,10.634,134.895,0.025,134.895,89.99,61.436,6.549,31.94,-101.999,0.288,0,9.21,0.021,76.917,89.986,17576.409,3059.308,10.901,0.063,9.79,229.28,175.589,3.458,869.393,5.053,532.03,0.614,0.269,0.123,0.222,0.614,0.047,0.16,-0,0,0,0,0,0.001,4.054,90,4.55,834.662,0.001,334.056,0.885,52773461.174,15.524,189.288,0.034,0.042,0.037
4.589,727.477,1617.477,288.561,295.056,2.706,2.996,136.986,0.025,136.986,89.989,61.568,1.285,31.94,-101.999,0.184,0,-9.861,0.019,77.259,89.983,17559.093,3041.992,10.883,0.063,9.79,229.599,175.49,3.485,753.013,4.381,533.751,0.615,0.269,0.124,0.222,0.615,0.03,0.105,0,0,0,0,0,-0.001,4.657,90,4.486,833.669,0.001,334.018,0.886,52794296.722,15.524,189.288,0.027,0.043,0.037
4.616,735.177,1625.177,288.572,295.065,-1.938,2.677,138.629,0.026,138.629,89.989,61.556,1.846,31.94,-101.999,0.43,0,-6.33,0.004,77.48,89.981,17545.5,3028.4,10.869,0.063,9.79,228.885,175.411,3.444,661.661,3.852,533.93,0.615,0.269,0.124,0.222,0.616,0.07,0.243,-0,0,0,0,0,-0.001,4.801,90,4.436,832.89,0.001,333.987,0.887,52769153.212,15.524,189.288,0.023,0.043,0.037
4.639,741.879,1631.879,288.496,294.977,-4.691,5.628,140.058,0.026,140.058,89.989,61.497,3.11,31.94,-101.999,0.507,0,-1.905,0.001,77.577,89.98,17541.313,3024.212,10.864,0.063,9.79,228.661,175.387,3.432,608.976,3.546,533.104,0.615,0.269,0.124,0.222,0.615,0.083,0.285,-0,0,0,0,0,-0,4.737,90,4.393,832.212,0.001,333.961,0.886,52722715.136,15.524,189.288,0.02,0.043,0.037
4.659,747.588,1637.588,288.378,294.849,-7.188,7.912,141.275,0.026,141.275,89.989,61.431,3.308,31.94,-101.999,0.466,0,2.039,0.003,77.575,89.98,17537.744,3020.644,10.86,0.063,9.79,228.773,175.367,3.44,564.081,3.285,531.733,0.614,0.269,0.123,0.222,0.615,0.076,0.262,0,0,0,0,0,0,4.569,90,4.356,831.634,0.001,333.938,0.886,52669066.121,15.524,189.288,0.022,0.043,0.037
4.681,753.798,1643.798,288.193,294.654,-10.048,10.4,142.597,0.027,142.597,89.989,61.366,2.682,31.94,-101.998,0.317,0,5.44,0.001,77.493,89.981,17533.861,3016.76,10.856,0.063,9.79,229.195,175.344,3.469,515.227,3.002,529.573,0.614,0.269,0.123,0.222,0.614,0.051,0.178,-0,0,0,0,0,0,4.239,90,4.315,831.005,0.001,333.914,0.885,52595132.17,15.524,189.288,0.032,0.043,0.037
4.712,762.962,1652.962,287.805,294.261,-14.308,14.4,144.549,0.027,144.549,89.989,61.301,1.626,31.94,-101.998,0.071,0,7.685,0.024,77.276,89.984,17528.124,3011.023,10.85,0.063,9.79,229.902,175.311,3.516,443.05,2.582,526.305,0.612,0.269,0.121,0.222,0.612,0.011,0.039,0,0,0,0,0,0.001,4.061,90,4.256,830.078,0.001,333.878,0.884,52479748.646,15.524,189.288,0.048,0.043,0.037
4.76,776.681,1666.681,286.973,293.435,-20.519,20.537,147.473,0.028,147.473,89.989,61.24,0.875,31.94,-101.998,0.205,0,-6.449,0.016,76.919,89.989,17519.519,3002.418,10.841,0.063,9.79,229.479,175.261,3.492,334.784,1.952,521.071,0.61,0.269,0.12,0.221,0.61,0.033,0.116,0,0,0,0,0,-0.001,4.36,90,4.167,828.689,0.001,333.824,0.882,52287502.64,15.524,189.288,0.049,0.044,0.037
4.809,790.764,1680.764,285.812,292.292,-26.624,26.638,150.484,0.029,150.484,89.989,61.209,0.845,31.94,-101.998,0.391,0,-0.153,0.002,76.745,89.99,17510.653,2993.553,10.832,0.063,9.79,228.89,175.21,3.458,223.254,1.302,513.305,0.607,0.27,0.117,0.22,0.607,0.064,0.22,0,0,0,0,0,-0,4.061,90,4.075,827.264,0.001,333.768,0.878,52014337.387,15.524,189.288,0.026,0.044,0.036
4.835,798.236,1688.236,285.076,291.565,-29.563,29.628,152.085,0.03,152.085,89.989,61.173,1.965,31.94,-101.998,0.339,0,3.648,0.001,76.792,89.989,17505.934,2988.833,10.827,0.063,9.79,229.013,175.182,3.467,163.879,0.956,508.464,0.605,0.27,0.115,0.22,0.605,0.055,0.19,-0,0,0,0,0,0,3.956,90,4.026,826.508,0.001,333.739,0.876,51850349.238,15.524,189.288,0.03,0.044,0.036
4.866,806.909,1696.909,284.126,290.617,-32.757,33.017,153.948,0.03,153.948,89.989,61.083,4.134,31.94,-101.998,0.155,0,6.7,0.006,76.955,89.987,17500.44,2983.339,10.821,0.063,9.79,229.514,175.151,3.502,94.757,0.553,502.383,0.602,0.27,0.113,0.219,0.602,0.025,0.087,0,0,0,0,0,0.001,3.936,90,3.97,825.63,0.001,333.705,0.873,51645619.984,15.524,189.288,0.011,0.044,0.036
4.877,810.052,1700.052,283.757,290.246,-33.883,34.259,154.624,0.03,154.624,89.989,61.032,5.062,31.94,-101.998,0.067,0,7.171,0.012,77.032,89.985,17498.444,2981.343,10.819,0.063,9.79,229.762,175.139,3.519,69.649,0.407,500.109,0.601,0.27,0.112,0.219,0.601,0.011,0.036,0,0,0,0,0,0.001,3.962,90,3.95,825.312,0.001,333.692,0.872,51567858.679,15.524,189.288,0.017,0.044,0.036
4.894,814.759,1704.759,283.171,289.653,-36.691,37.297,155.637,0.031,155.637,89.989,60.934,6.698,31.94,-101.998,0.068,0,-7.156,0.004,77.153,89.983,17498.159,2981.058,10.819,0.063,9.79,229.735,175.137,3.517,11.827,0.069,496.564,0.599,0.27,0.111,0.219,0.599,0.011,0.039,-0,0,0,0,0,-0.001,4.001,90,3.919,824.835,0.001,333.674,0.871,51444826.074,15.524,189.288,0.003,0.044,0.036
# Event BURNOUT occurred at t=4.897 seconds
# Event EJECTION_CHARGE occurred at t=4.897 seconds
4.897,815.72,1705.72,283.045,289.525,-37.266,37.922,155.844,0.031,155.844,89.989,60.911,7.024,31.94,-101.998,0.095,0,-7.048,0.002,77.177,89.983,17498.101,2981,10.819,0.063,9.79,229.651,175.137,3.511,0,0,495.814,0.599,0.27,0.111,0.218,0.599,0.015,0.055,-0,0,0,0,0,-0.001,4.009,90,3.913,824.738,0.001,333.67,0.87,51418553.203,15.524,189.288,0.005,0.045,0.036
4.902,817.162,1707.162,282.856,289.332,-37.144,37.849,156.154,0.031,156.154,89.989,60.875,7.274,31.94,-101.998,0.133,0,-6.824,0.001,77.212,89.982,17498.101,2981,10.819,0.063,9.79,229.531,175.137,3.504,0,0,494.681,0.599,0.27,0.11,0.218,0.599,0.021,0.076,-0,0,0,0,0,-0.001,4.016,90,3.903,824.592,0.001,333.664,0.87,51378681.021,15.524,189.288,0.008,0.045,0.036
4.91,819.322,1709.322,282.573,289.043,-36.969,37.744,156.619,0.031,156.619,89.989,60.818,7.61,31.94,-101.998,0.184,0,-6.357,0.001,77.263,89.982,17498.101,2981,10.819,0.063,9.79,229.368,175.137,3.493,0,0,492.982,0.598,0.27,0.109,0.218,0.598,0.03,0.104,-0,0,0,0,0,-0.001,4.014,90,3.889,824.373,0.001,333.656,0.869,51318538.946,15.524,189.288,0.011,0.045,0.036
4.921,822.558,1712.558,282.15,288.612,-36.724,37.596,157.315,0.031,157.315,89.989,60.728,8.052,31.94,-101.998,0.253,0,-5.396,-0,77.33,89.981,17498.101,2981,10.819,0.063,9.79,229.15,175.137,3.479,0,0,490.467,0.597,0.27,0.109,0.218,0.597,0.041,0.142,-0,0,0,0,0,-0,4.011,90,3.868,824.046,0.001,333.643,0.868,51228611.168,15.524,189.288,0.017,0.046,0.036
